[
  {"listing_id":"lst_a1b2c3d4e5f60001","building_name":"Jackson Park","management_company":"TF Cornerstone","lat":40.7447,"lng":-73.9494,"subway_lines":["7"],"subway_station":"Court Square","subway_walk_min":6,"commute_midtown_min":15,"commute_downtown_min":22,"neighborhood_vibe":"Upscale high-rise corridor, very walkable","google_rating":4.2,"google_review_count":312,"review_summary_id":"rev_001","year_built":2018,"total_units":1871},
  {"listing_id":"lst_a1b2c3d4e5f60002","building_name":"Tower 28","management_company":"Rockrose Development","lat":40.7481,"lng":-73.9451,"subway_lines":["7","E","M"],"subway_station":"Court Square / 45th Rd","subway_walk_min":4,"commute_midtown_min":13,"commute_downtown_min":20,"neighborhood_vibe":"Transit-oriented, mixed commercial/residential","google_rating":4.0,"google_review_count":178,"review_summary_id":"rev_002","year_built":2012,"total_units":458},
  {"listing_id":"lst_a1b2c3d4e5f60003","building_name":"The Forge","management_company":"Simon Baron Development","lat":40.7509,"lng":-73.9394,"subway_lines":["N","W","7"],"subway_station":"Queensboro Plaza","subway_walk_min":5,"commute_midtown_min":12,"commute_downtown_min":18,"neighborhood_vibe":"New development zone, buzzing restaurant scene","google_rating":4.4,"google_review_count":89,"review_summary_id":"rev_003","year_built":2023,"total_units":328},
  {"listing_id":"lst_a1b2c3d4e5f60004","building_name":"Queens Plaza North","management_company":"Rose Associates","lat":40.7516,"lng":-73.9401,"subway_lines":["N","W","Q"],"subway_station":"Queens Plaza","subway_walk_min":3,"commute_midtown_min":11,"commute_downtown_min":17,"neighborhood_vibe":"High-traffic transit hub, lots of new builds","google_rating":3.9,"google_review_count":142,"review_summary_id":"rev_004","year_built":2009,"total_units":320},
  {"listing_id":"lst_a1b2c3d4e5f60005","building_name":"Hunters Point South","management_company":"Related Companies","lat":40.7444,"lng":-73.9596,"subway_lines":["7"],"subway_station":"Vernon Blvd–Jackson Ave","subway_walk_min":9,"commute_midtown_min":18,"commute_downtown_min":28,"neighborhood_vibe":"Quiet waterfront, residential families, park access","google_rating":4.5,"google_review_count":256,"review_summary_id":"rev_005","year_built":2015,"total_units":925},
  {"listing_id":"lst_a1b2c3d4e5f60006","building_name":"36th Street Boutique","management_company":"Tri-State Management","lat":40.7522,"lng":-73.9303,"subway_lines":["R","M"],"subway_station":"36th St (Queens)","subway_walk_min":5,"commute_midtown_min":20,"commute_downtown_min":30,"neighborhood_vibe":"Quiet Dutch Kills block, low-rise residential","google_rating":3.7,"google_review_count":44,"review_summary_id":"rev_006","year_built":2005,"total_units":24},
  {"listing_id":"lst_a1b2c3d4e5f60007","building_name":"CityLights at Queens Landing","management_company":"Rockrose Development","lat":40.7438,"lng":-73.9572,"subway_lines":["7"],"subway_station":"Vernon Blvd–Jackson Ave","subway_walk_min":8,"commute_midtown_min":17,"commute_downtown_min":26,"neighborhood_vibe":"Established waterfront high-rise, mature tree-lined streets","google_rating":4.1,"google_review_count":203,"review_summary_id":"rev_007","year_built":1997,"total_units":516},
  {"listing_id":"lst_a1b2c3d4e5f60008","building_name":"11th Street Residences","management_company":"FirstService Residential","lat":40.7468,"lng":-73.9525,"subway_lines":["G","7"],"subway_station":"21st St–Queensbridge","subway_walk_min":7,"commute_midtown_min":18,"commute_downtown_min":22,"neighborhood_vibe":"Residential LIC, quiet block, good G train access","google_rating":4.0,"google_review_count":67,"review_summary_id":"rev_008","year_built":2016,"total_units":112},
  {"listing_id":"lst_a1b2c3d4e5f60009","building_name":"Instrata at Queens Plaza","management_company":"Kushner Companies","lat":40.7502,"lng":-73.9412,"subway_lines":["N","W","Q","7","E","M"],"subway_station":"Queens Plaza / Court Square","subway_walk_min":3,"commute_midtown_min":10,"commute_downtown_min":17,"neighborhood_vibe":"Ultra-connected transit hub, lively commercial strip","google_rating":3.8,"google_review_count":445,"review_summary_id":"rev_009","year_built":2019,"total_units":690},
  {"listing_id":"lst_a1b2c3d4e5f60010","building_name":"Queens Blvd Walk-Up","management_company":"Self-managed","lat":40.7534,"lng":-73.9251,"subway_lines":["7"],"subway_station":"40th St–Lowery St","subway_walk_min":6,"commute_midtown_min":22,"commute_downtown_min":32,"neighborhood_vibe":"LIC/Sunnyside border, local shops, no-frills residential","google_rating":3.5,"google_review_count":12,"review_summary_id":"rev_010","year_built":1968,"total_units":28},
  {"listing_id":"lst_a1b2c3d4e5f60011","building_name":"Avalon Riverview","management_company":"AvalonBay Communities","lat":40.7455,"lng":-73.9559,"subway_lines":["7"],"subway_station":"Vernon Blvd–Jackson Ave","subway_walk_min":10,"commute_midtown_min":20,"commute_downtown_min":29,"neighborhood_vibe":"Established Avalon property, professional management","google_rating":4.2,"google_review_count":189,"review_summary_id":"rev_011","year_built":2008,"total_units":374},
  {"listing_id":"lst_a1b2c3d4e5f60012","building_name":"Dutch Kills Garden Suites","management_company":"Kings Road Realty","lat":40.7530,"lng":-73.9341,"subway_lines":["N","W"],"subway_station":"Queensboro Plaza","subway_walk_min":8,"commute_midtown_min":17,"commute_downtown_min":25,"neighborhood_vibe":"Quiet Dutch Kills townhouse block, backyard, low noise","google_rating":4.0,"google_review_count":28,"review_summary_id":"rev_012","year_built":1930,"total_units":8},
  {"listing_id":"lst_a1b2c3d4e5f60013","building_name":"One QPS Tower","management_company":"Lalezarian Properties","lat":40.7510,"lng":-73.9405,"subway_lines":["N","W","Q","7","E","M"],"subway_station":"Queens Plaza","subway_walk_min":2,"commute_midtown_min":10,"commute_downtown_min":16,"neighborhood_vibe":"Premium LIC towers, Manhattan-view floors, 6-line access","google_rating":4.3,"google_review_count":176,"review_summary_id":"rev_013","year_built":2017,"total_units":422}
]
